[
	{
		"restaurant_id": "0549e462-3d49-4592-be38-3e508e081e9d",
		"street": "Av. du Grey",
		"street_number": 117,
		"postal_code": 1018,
		"city": "Lausanne",
		"region": "Vaud",
		"country": "Switzerland",
		"latitude": 46.542797,
		"longitude": 6.6181498
	},
	{
		"restaurant_id": "159902cc-8b51-4181-96ff-530ee6df9fcd",
		"street": "Av. Mon-Loisir",
		"street_number": 16,
		"postal_code": 1006,
		"city": "Lausanne",
		"region": "Vaud",
		"country": "Switzerland",
		"latitude": 46.511387,
		"longitude": 6.6309066
	},
	{
		"restaurant_id": "21b4dc5d-e593-4649-bce8-04cff038bfbb",
		"street": "Av. de Rumine",
		"street_number": 22,
		"postal_code": 1005,
		"city": "Lausanne",
		"region": "Vaud",
		"country": "Switzerland",
		"latitude": 46.516903,
		"longitude": 6.639998
	},
	{
		"restaurant_id": "32d44bf5-4b2a-4909-ac0b-d5798cc05e5d",
		"street": "Av. des Figuiers",
		"street_number": 39,
		"postal_code": 1007,
		"city": "Lausanne",
		"region": "Vaud",
		"country": "Switzerland",
		"latitude": 46.516556,
		"longitude": 6.6062183
	},
	{
		"restaurant_id": "381d16f0-618b-40d5-80f6-ad0788bb6edf",
		"street": "Rue de Genève",
		"street_number": 102,
		"postal_code": 1004,
		"city": "Lausanne",
		"region": "Vaud",
		"country": "Switzerland",
		"latitude": 46.526184,
		"longitude": 6.6097403
	},
	{
		"restaurant_id": "59e046f1-6afe-4e93-8ed8-a5bc80d6514d",
		"street": "Av. du Tribunal-Fédéral",
		"street_number": 1,
		"postal_code": 1005,
		"city": "Lausanne",
		"region": "Vaud",
		"country": "Switzerland",
		"latitude": 46.519592,
		"longitude": 6.6377687
	},
	{
		"restaurant_id": "5c6f95e8-ba31-425b-bf8f-5d3a90fa3c04",
		"street": "All. Ernest-Ansermet",
		"street_number": 1,
		"postal_code": 1003,
		"city": "Démos",
		"region": "Vaud",
		"country": "Switzerland",
		"latitude": 46.519775,
		"longitude": 6.6273394
	},
	{
		"restaurant_id": "6b8b711b-7f68-4a90-834d-ba6780a33142",
		"street": "Av. Benjamin-Constant",
		"street_number": 5,
		"postal_code": 1003,
		"city": "Lausanne",
		"region": "Vaud",
		"country": "Switzerland",
		"latitude": 46.519176,
		"longitude": 6.6367745
	},
	{
		"restaurant_id": "8b89deae-0d82-49d9-9369-c6ac65be554a",
		"street": "Av. du Chablais",
		"street_number": 21,
		"postal_code": 1008,
		"city": "Prilly",
		"region": "Vaud",
		"country": "Switzerland",
		"latitude": 46.52593,
		"longitude": 6.6031575
	},
	{
		"restaurant_id": "8fed07a2-960c-4b38-981c-d35e6c306dd0",
		"street": "Rue Dr César-Roux",
		"street_number": 5,
		"postal_code": 1005,
		"city": "Lausanne",
		"region": "Vaud",
		"country": "Switzerland",
		"latitude": 46.525097,
		"longitude": 6.63773
	},
	{
		"restaurant_id": "90f8fabb-a774-4538-b198-a886a8ba120a",
		"street": "Av. Tivoli",
		"street_number": 1,
		"postal_code": 1007,
		"city": "Lausanne",
		"region": "Vaud",
		"country": "Switzerland",
		"latitude": 46.521084,
		"longitude": 6.62203
	},
	{
		"restaurant_id": "9b1c3548-846b-4059-b1ad-64d2360f70bd",
		"street": "All. Ernest-Ansermet",
		"street_number": 3,
		"postal_code": 1003,
		"city": "Lausanne",
		"region": "Vaud",
		"country": "Switzerland",
		"latitude": 46.520462,
		"longitude": 6.62486
	},
	{
		"restaurant_id": "a067629d-55da-4bee-ac6f-b368954a126a",
		"street": "Av. Emile-Henri-Jaques-Dalcroze",
		"street_number": 9,
		"postal_code": 1007,
		"city": "Lausanne",
		"region": "Vaud",
		"country": "Switzerland",
		"latitude": 46.51189,
		"longitude": 6.6091895
	},
	{
		"restaurant_id": "a795bc05-ba76-43be-a355-73430691579b",
		"street": "Rue de Bourg",
		"street_number": 11,
		"postal_code": 1003,
		"city": "Lausanne",
		"region": "Vaud",
		"country": "Switzerland",
		"latitude": 46.520206,
		"longitude": 6.6344285
	},
	{
		"restaurant_id": "abe82458-9b75-465c-852c-c558aea374d9",
		"street": "Rue Cheneau-de-Bourg",
		"street_number": 1,
		"postal_code": 1003,
		"city": "Lausanne",
		"region": "Vaud",
		"country": "Switzerland",
		"latitude": 46.5209,
		"longitude": 6.6364408
	},
	{
		"restaurant_id": "ac31fb36-06b6-488c-b847-ac3e60770a96",
		"street": "Rue centrale",
		"street_number": 21,
		"postal_code": 1003,
		"city": "Démos",
		"region": "Vaud",
		"country": "Switzerland",
		"latitude": 46.521088,
		"longitude": 6.634901
	},
	{
		"restaurant_id": "ae521d81-1065-4a18-93bb-43c562e4f937",
		"street": "Rue de Genève",
		"street_number": 7,
		"postal_code": 1003,
		"city": "Lausanne",
		"region": "Vaud",
		"country": "Switzerland",
		"latitude": 46.521507,
		"longitude": 6.6293883
	},
	{
		"restaurant_id": "b0566a60-b7c9-40ed-aabc-1ff75cea9ca0",
		"street": "Av. des Figuiers",
		"street_number": 2,
		"postal_code": 1007,
		"city": "Lausanne",
		"region": "Vaud",
		"country": "Switzerland",
		"latitude": 46.517075,
		"longitude": 6.609796
	},
	{
		"restaurant_id": "bb9542e7-8906-40a6-ba27-78aa3ca9a14e",
		"street": "Chemin de Contigny",
		"street_number": 1,
		"postal_code": 1007,
		"city": "Lausanne",
		"region": "Vaud",
		"country": "Switzerland",
		"latitude": 46.51733,
		"longitude": 6.612013
	},
	{
		"restaurant_id": "cb0cd68a-6910-447e-97cf-5d595ff0abcb",
		"street": "Pl. Saint-François",
		"street_number": 2,
		"postal_code": 1003,
		"city": "Démos",
		"region": "Vaud",
		"country": "Switzerland",
		"latitude": 46.519924,
		"longitude": 6.6325636
	},
	{
		"restaurant_id": "cb68a908-45ff-490a-9f27-0085da95765d",
		"street": "Blvd. de Grancy",
		"street_number": 32,
		"postal_code": 1006,
		"city": "Lausanne",
		"region": "Vaud",
		"country": "Switzerland",
		"latitude": 46.515972,
		"longitude": 6.628005
	},
	{
		"restaurant_id": "cd1621e4-2ba9-4e00-93d9-e8bfda0bd280",
		"street": "Route Louis–Favre",
		"street_number": 8,
		"postal_code": 1024,
		"city": "Démos",
		"region": "Vaud",
		"country": "Switzerland",
		"latitude": 46.52268,
		"longitude": 6.566431
	},
	{
		"restaurant_id": "d1b4d409-b9dc-4062-a301-1eebb009d0bd",
		"street": "Av. Vingt-Quatre-Janvier",
		"street_number": 4,
		"postal_code": 1004,
		"city": "Lausanne",
		"region": "Vaud",
		"country": "Switzerland",
		"latitude": 46.5266,
		"longitude": 6.6235023
	},
	{
		"restaurant_id": "d960ca18-5919-4586-93b7-16853a33f417",
		"street": "Chemin de Couvaloup",
		"street_number": 13,
		"postal_code": 1005,
		"city": "Lausanne",
		"region": "Vaud",
		"country": "Switzerland",
		"latitude": 46.52507,
		"longitude": 6.636815
	},
	{
		"restaurant_id": "ea6c2a0e-a28f-4d73-9457-1799593a5918",
		"street": "Av. de Cour",
		"street_number": 4,
		"postal_code": 1007,
		"city": "Lausanne",
		"region": "Vaud",
		"country": "Switzerland",
		"latitude": 46.512363,
		"longitude": 6.6277003
	},
	{
		"restaurant_id": "fe49f756-30a5-4e22-bccb-5b23719b1398",
		"street": "Allée du Bornan",
		"street_number": 8,
		"postal_code": 1007,
		"city": "Lausanne",
		"region": "Vaud",
		"country": "Switzerland",
		"latitude": 46.512863,
		"longitude": 6.606075
	}
]
